{
"type": "FeatureCollection",
"crs": { "type": "name", "properties": { "name": "urn:ogc:def:crs:OGC:1.3:CRS84" } },
"features": [
{ "type": "Feature", "properties": { "OBJECTID": 1, "NAME": "VA MEDICAL CENTER -- LEESTOWN DIVISION", "ADDRESS": "2250 LEESTOWN RD", "ATLEX": 10, "Page": 30, "Grid": "L-18" }, "geometry": { "type": "Point", "coordinates": [ -84.539487257646513, 38.072916682154293 ] } },
{ "type": "Feature", "properties": { "OBJECTID": 2, "NAME": "ST JOSEPH EAST", "ADDRESS": "150 N EAGLE CREEK DR", "ATLEX": 5, "Page": 61, "Grid": "V-27" }, "geometry": { "type": "Point", "coordinates": [ -84.440435003989364, 37.998757576307639 ] } },
{ "type": "Feature", "properties": { "OBJECTID": 3, "NAME": "BAPTIST HEALTH", "ADDRESS": "1740 NICHOLASVILLE RD", "ATLEX": 2, "Page": 59, "Grid": "O-25" }, "geometry": { "type": "Point", "coordinates": [ -84.512283398459402, 38.018918317857107 ] } },
{ "type": "Feature", "properties": { "OBJECTID": 4, "NAME": "VA MEDICAL CENTER -- COOPER DR DIVISION", "ADDRESS": "1101 VETERANS DR", "ATLEX": 9, "Page": 59, "Grid": "P-24" }, "geometry": { "type": "Point", "coordinates": [ -84.506483326480961, 38.029720313074328 ] } },
{ "type": "Feature", "properties": { "OBJECTID": 5, "NAME": "SHRINERS HOSPITAL FOR CHILDREN", "ADDRESS": "1900 RICHMOND RD", "ATLEX": 4, "Page": 60, "Grid": "S-24" }, "geometry": { "type": "Point", "coordinates": [ -84.472941777583699, 38.022564426018967 ] } },
{ "type": "Feature", "properties": { "OBJECTID": 6, "NAME": "EASTERN STATE HOSPITAL", "ADDRESS": "1350 BULL LEA RD", "ATLEX": 3, "Page": 31, "Grid": "P-17" }, "geometry": { "type": "Point", "coordinates": [ -84.497884009193996, 38.082844346879924 ] } },
{ "type": "Feature", "properties": { "OBJECTID": 7, "NAME": "ST JOSEPH HOSPITAL", "ADDRESS": "1 ST JOSEPH DR", "ATLEX": 6, "Page": 44, "Grid": "N-23" }, "geometry": { "type": "Point", "coordinates": [ -84.523636938139248, 38.032475895419132 ] } },
{ "type": "Feature", "properties": { "OBJECTID": 8, "NAME": "UK HEALTHCARE GOOD SAMARITAN HOSPITAL", "ADDRESS": "310 S LIMESTONE", "ATLEX": 7, "Page": 45, "Grid": "P-22" }, "geometry": { "type": "Point", "coordinates": [ -84.501222224749668, 38.042123232229834 ] } },
{ "type": "Feature", "properties": { "OBJECTID": 9, "NAME": "UK MEDICAL CENTER", "ADDRESS": "800 ROSE ST", "ATLEX": 8, "Page": 45, "Grid": "P-23" }, "geometry": { "type": "Point", "coordinates": [ -84.508205668868797, 38.031254965564045 ] } },
{ "type": "Feature", "properties": { "OBJECTID": 10, "NAME": "CARDINAL HILL REHABILITATION HOSPITAL", "ADDRESS": "2050 VERSAILLES RD", "ATLEX": 1, "Page": 44, "Grid": "L-21" }, "geometry": { "type": "Point", "coordinates": [ -84.542120524093249, 38.046568181981947 ] } }
]
}
